{
  "tenant_id": "tenant_taxi_001",
  "description": "Datos demo para inicializar el servicio de taxi",
  "drivers": [
    {
      "driver_id": "driver_001",
      "name": "Juan Pérez",
      "phone": "+5215522222001",
      "email": "juan.perez@taxirapido.com",
      "license_number": "CDMX-12345",
      "status": "available",
      "current_location": {
        "lat": 19.428,
        "lon": -99.138,
        "address": "Cerca del Zócalo, Centro"
      },
      "rating": 4.9,
      "total_rides": 1523,
      "acceptance_rate": 0.95,
      "vehicle": {
        "type": "sedan",
        "brand": "Nissan",
        "model": "Versa",
        "year": 2022,
        "color": "Blanco",
        "plates": "ABC-1234",
        "passenger_capacity": 4
      }
    },
    {
      "driver_id": "driver_002",
      "name": "María González",
      "phone": "+5215522222002",
      "email": "maria.gonzalez@taxirapido.com",
      "license_number": "CDMX-23456",
      "status": "available",
      "current_location": {
        "lat": 19.435,
        "lon": -99.130,
        "address": "Cerca de Reforma"
      },
      "rating": 4.8,
      "total_rides": 892,
      "acceptance_rate": 0.92,
      "vehicle": {
        "type": "sedan",
        "brand": "Toyota",
        "model": "Corolla",
        "year": 2023,
        "color": "Gris",
        "plates": "XYZ-5678",
        "passenger_capacity": 4
      }
    },
    {
      "driver_id": "driver_003",
      "name": "Carlos Ramírez",
      "phone": "+5215522222003",
      "email": "carlos.ramirez@taxirapido.com",
      "license_number": "CDMX-34567",
      "status": "available",
      "current_location": {
        "lat": 19.440,
        "lon": -99.125,
        "address": "Cerca de Polanco"
      },
      "rating": 4.7,
      "total_rides": 654,
      "acceptance_rate": 0.88,
      "vehicle": {
        "type": "suv",
        "brand": "Mazda",
        "model": "CX-5",
        "year": 2021,
        "color": "Negro",
        "plates": "DEF-9012",
        "passenger_capacity": 5
      }
    },
    {
      "driver_id": "driver_004",
      "name": "Ana Martínez",
      "phone": "+5215522222004",
      "email": "ana.martinez@taxirapido.com",
      "license_number": "CDMX-45678",
      "status": "busy",
      "current_location": {
        "lat": 19.425,
        "lon": -99.165,
        "address": "Cerca de Santa Fe"
      },
      "rating": 4.95,
      "total_rides": 2103,
      "acceptance_rate": 0.97,
      "vehicle": {
        "type": "sedan",
        "brand": "Honda",
        "model": "Civic",
        "year": 2023,
        "color": "Azul",
        "plates": "GHI-3456",
        "passenger_capacity": 4
      }
    },
    {
      "driver_id": "driver_005",
      "name": "Roberto López",
      "phone": "+5215522222005",
      "email": "roberto.lopez@taxirapido.com",
      "license_number": "CDMX-56789",
      "status": "available",
      "current_location": {
        "lat": 19.355,
        "lon": -99.185,
        "address": "Cerca de Coyoacán"
      },
      "rating": 4.6,
      "total_rides": 423,
      "acceptance_rate": 0.85,
      "vehicle": {
        "type": "van",
        "brand": "Nissan",
        "model": "Urvan",
        "year": 2020,
        "color": "Blanco",
        "plates": "JKL-7890",
        "passenger_capacity": 12,
        "luggage_capacity": 10
      }
    }
  ],
  "customers": [
    {
      "customer_id": "customer_001",
      "phone": "+5215533333001",
      "name": "Laura Sánchez",
      "customer_type": "frequent",
      "total_rides": 45,
      "saved_addresses": [
        {
          "label": "Casa",
          "address": "Av. Insurgentes Sur 1234",
          "lat": 19.365,
          "lon": -99.175
        },
        {
          "label": "Trabajo",
          "address": "Av. Reforma 456",
          "lat": 19.432,
          "lon": -99.138
        }
      ]
    },
    {
      "customer_id": "customer_002",
      "phone": "+5215533333002",
      "name": "Pedro Fernández",
      "customer_type": "new",
      "total_rides": 2,
      "saved_addresses": []
    },
    {
      "customer_id": "customer_003",
      "phone": "+5215533333003",
      "name": "Sofía Hernández",
      "customer_type": "vip",
      "total_rides": 156,
      "loyalty_points": 1560,
      "saved_addresses": [
        {
          "label": "Casa",
          "address": "Polanco, Miguel Hidalgo",
          "lat": 19.435,
          "lon": -99.193
        }
      ]
    }
  ],
  "promo_codes": [
    {
      "code": "BIENVENIDO",
      "discount_type": "percentage",
      "discount_value": 20.0,
      "max_discount": 100.0,
      "usage_limit_per_customer": 1,
      "description": "20% de descuento en tu primer viaje",
      "valid_until": "2026-12-31",
      "active": true
    },
    {
      "code": "AIRPORT50",
      "discount_type": "fixed_amount",
      "discount_value": 50.0,
      "description": "$50 de descuento en viajes al aeropuerto",
      "min_distance_km": 10.0,
      "valid_until": "2026-06-30",
      "active": true
    },
    {
      "code": "AMIGO10",
      "discount_type": "percentage",
      "discount_value": 10.0,
      "usage_limit": 100,
      "description": "10% de descuento - Referido por un amigo",
      "valid_until": "2026-12-31",
      "active": true
    }
  ],
  "popular_destinations": {
    "aeropuerto": {
      "name": "Aeropuerto Internacional de la Ciudad de México (AICM)",
      "lat": 19.4363,
      "lon": -99.0721,
      "aliases": ["aeropuerto", "aicm", "terminal aerea", "vuelo"]
    },
    "central_autobuses_norte": {
      "name": "Central de Autobuses del Norte",
      "lat": 19.479,
      "lon": -99.141,
      "aliases": ["central norte", "autobuses norte", "tapo norte"]
    },
    "central_autobuses_sur": {
      "name": "Central de Autobuses del Sur (TASQUEÑA)",
      "lat": 19.298,
      "lon": -99.136,
      "aliases": ["central sur", "tasqueña", "autobuses sur"]
    },
    "terminal_tapo": {
      "name": "Terminal de Autobuses de Pasajeros de Oriente (TAPO)",
      "lat": 19.441,
      "lon": -99.153,
      "aliases": ["tapo", "terminal oriente", "autobuses oriente"]
    },
    "santa_fe": {
      "name": "Santa Fe",
      "lat": 19.360,
      "lon": -99.260,
      "aliases": ["santa fe", "centro santa fe"]
    },
    "polanco": {
      "name": "Polanco",
      "lat": 19.435,
      "lon": -99.193,
      "aliases": ["polanco", "masaryk"]
    },
    "roma": {
      "name": "Colonia Roma",
      "lat": 19.418,
      "lon": -99.163,
      "aliases": ["roma", "condesa roma"]
    },
    "condesa": {
      "name": "Colonia Condesa",
      "lat": 19.413,
      "lon": -99.171,
      "aliases": ["condesa", "parque mexico"]
    },
    "coyoacan": {
      "name": "Coyoacán",
      "lat": 19.350,
      "lon": -99.162,
      "aliases": ["coyoacan", "viveros", "plaza coyoacan"]
    },
    "unam": {
      "name": "Ciudad Universitaria (UNAM)",
      "lat": 19.334,
      "lon": -99.192,
      "aliases": ["cu", "unam", "ciudad universitaria"]
    },
    "zocalo": {
      "name": "Zócalo - Centro Histórico",
      "lat": 19.433,
      "lon": -99.133,
      "aliases": ["zocalo", "centro historico", "centro"]
    }
  },
  "operating_config": {
    "service_area": {
      "center": {
        "lat": 19.432608,
        "lon": -99.133209
      },
      "radius_km": 50.0,
      "description": "Ciudad de México y área metropolitana"
    },
    "support": {
      "phone": "+5215500001111",
      "email": "soporte@taxirapido.com",
      "whatsapp": "+5215500001111",
      "hours": "24/7"
    }
  }
}
